time,pos_x,pos_y,pos_z,vel_x,vel_y,vel_z,att_phi,att_theta,att_psi,rate_p,rate_q,rate_r,cmd_thrust,cmd_roll,cmd_pitch,cmd_yaw
1333.164062,-3.957031,1.437500,-1.187500,0.000000,0.000000,-0.028780,0.120026,-0.203551,0.208251,-0.044189,0.142090,0.025879,0,-4500,4500,0
1333.173828,-3.957031,1.437500,-1.187500,0.009998,0.000000,-0.028275,0.119417,-0.202180,0.208748,-0.033447,0.138428,0.029053,0,-4500,4500,0
1333.183594,-3.957031,1.437500,-1.187500,0.009998,0.000000,-0.025848,0.119001,-0.200997,0.209197,-0.036133,0.127686,0.026367,0,-4500,4500,0
1333.193359,-3.957031,1.437500,-1.187500,0.009998,0.000000,-0.023308,0.118608,-0.199813,0.209671,-0.026611,0.108643,0.035400,0,-4500,4500,0
1333.203125,-3.957031,1.437500,-1.187500,0.009998,0.000000,-0.020718,0.118383,-0.198877,0.210262,-0.012207,0.094727,0.043945,0,-4500,4500,0
1333.212891,-3.957031,1.429688,-1.191406,-0.009998,-0.009998,-0.030287,0.118185,-0.198132,0.210606,0.002197,0.078857,0.046631,0,-4500,4500,0
1333.222656,-3.957031,1.429688,-1.191406,-0.009998,-0.009998,-0.027658,0.118047,-0.197572,0.211154,0.000977,0.062256,0.048828,0,-4500,4500,0
1333.232422,-3.957031,1.429688,-1.191406,-0.009998,-0.009998,-0.025316,0.118032,-0.197074,0.211702,0.006836,0.050049,0.051514,0,-4500,4500,0
1333.242188,-3.957031,1.429688,-1.191406,0.009998,0.000000,-0.030169,0.118087,-0.196701,0.212250,0.020020,0.043213,0.055176,0,-4500,4500,0
1333.251953,-3.957031,1.429688,-1.191406,0.009998,0.000000,-0.026810,0.118087,-0.196265,0.212762,0.021973,0.033691,0.048828,0,-4500,4500,0
1333.261719,-3.957031,1.429688,-1.191406,0.009998,0.000000,-0.024481,0.118149,-0.196078,0.213275,0.016357,0.022949,0.044434,0,-4500,4500,0
1333.271484,-3.957031,1.429688,-1.195312,0.000000,0.000000,-0.027191,0.118327,-0.196016,0.213640,0.020508,0.012939,0.043457,0,-4500,4500,0
1333.281372,-3.957031,1.429688,-1.195312,0.000000,0.000000,-0.024971,0.118450,-0.196016,0.213958,0.025879,-0.000244,0.034424,0,-4500,4500,0
1333.290039,-3.957031,1.429688,-1.195312,0.000000,0.000000,-0.023735,0.118519,-0.196078,0.214349,0.018311,-0.016113,0.031250,0,-4500,4500,0
1333.300781,-3.957031,1.429688,-1.195312,-0.009998,0.000000,-0.026094,0.118650,-0.196389,0.214558,0.006348,-0.023682,0.023682,0,-4500,4500,0
1333.310547,-3.957031,1.429688,-1.195312,-0.009998,0.000000,-0.026630,0.118658,-0.196638,0.214767,0.004883,-0.023682,0.022705,0,-4500,4500,0
1333.320312,-3.957031,1.429688,-1.195312,-0.009998,0.000000,-0.025415,0.118734,-0.196825,0.214962,0.000488,-0.015137,0.019531,0,-4500,4500,0
1333.330078,-3.957031,1.429688,-1.195312,-0.009998,0.000000,-0.024858,0.118603,-0.197012,0.215037,-0.017090,-0.009277,0.020020,0,-4500,4500,0
1333.339844,-3.957031,1.429688,-1.195312,0.000000,0.000000,-0.026079,0.118418,-0.197136,0.215219,-0.021240,-0.007812,0.025879,0,-4500,4500,0
1333.349609,-3.957031,1.429688,-1.195312,0.000000,0.000000,-0.026409,0.118178,-0.197261,0.215489,-0.017578,-0.008789,0.031738,0,-4500,4500,0
1333.359375,-3.957031,1.429688,-1.195312,0.000000,0.000000,-0.026377,0.117985,-0.197385,0.215745,-0.016602,-0.008789,0.035400,0,-4500,4500,0
1333.369141,-3.957031,1.429688,-1.199219,0.000000,0.000000,-0.027510,0.117683,-0.197510,0.216076,-0.024414,-0.012451,0.038086,0,-4500,4500,0
1333.378906,-3.957031,1.429688,-1.199219,0.000000,0.000000,-0.028046,0.117382,-0.197759,0.216420,-0.034180,-0.018799,0.037109,0,-4500,4500,0
1333.388672,-3.957031,1.429688,-1.199219,0.000000,0.000000,-0.029030,0.116996,-0.197945,0.216738,-0.030762,-0.011475,0.033936,0,-4500,4500,0
1333.398438,-3.957031,1.429688,-1.199219,0.000000,0.000000,-0.029984,0.116494,-0.198070,0.217116,-0.039307,-0.005127,0.029541,0,-4500,4500,0
1333.408203,-3.957031,1.429688,-1.199219,0.000000,0.000000,-0.030359,0.116061,-0.198132,0.217237,-0.044189,-0.000732,0.020508,0,-4500,4500,0
1333.417969,-3.957031,1.429688,-1.199219,0.000000,0.000000,-0.031271,0.115505,-0.198070,0.217386,-0.058594,0.014404,0.007324,0,-4500,4500,0
1333.427734,-3.957031,1.429688,-1.199219,0.000000,0.000000,-0.031921,0.114996,-0.197945,0.217433,-0.058594,0.018066,0.000000,0,-4500,4500,0
1333.436523,-3.957031,1.429688,-1.199219,0.000000,0.000000,-0.031948,0.114301,-0.197696,0.217359,-0.063965,0.026123,-0.003174,0,-4500,4500,0
1333.447266,-3.957031,1.429688,-1.199219,0.000000,0.000000,-0.032467,0.113675,-0.197447,0.217298,-0.068115,0.032471,-0.014893,0,-4500,4500,0
1333.457031,-3.957031,1.429688,-1.199219,0.000000,0.000000,-0.033085,0.113152,-0.197136,0.217197,-0.061279,0.031006,-0.018066,0,-4500,4500,0
1333.466797,-3.957031,1.429688,-1.199219,0.000000,0.000000,-0.035988,0.112712,-0.196701,0.217062,-0.043701,0.037842,-0.015869,0,-4500,4500,0
1333.476562,-3.957031,1.437500,-1.195312,0.000000,0.000000,-0.022440,0.112259,-0.196265,0.216840,-0.043213,0.049072,-0.019043,0,-4500,4500,0
1333.486328,-3.957031,1.437500,-1.195312,0.000000,0.000000,-0.022150,0.111819,-0.195705,0.216705,-0.041992,0.056885,-0.013916,0,-4500,4500,0
1333.496094,-3.957031,1.437500,-1.195312,0.000000,0.000000,-0.021133,0.111482,-0.195207,0.216604,-0.030762,0.051025,-0.009521,0,-4500,4500,0
1333.505859,-3.949219,1.437500,-1.199219,0.000000,0.000000,-0.021465,0.111228,-0.194709,0.216530,-0.018066,0.050537,-0.009521,0,-4500,4500,0
1333.515625,-3.949219,1.437500,-1.199219,0.000000,0.000000,-0.020439,0.111090,-0.194212,0.216503,-0.011230,0.051025,-0.010010,0,-4500,4500,0
1333.525391,-3.949219,1.437500,-1.199219,0.000000,0.000000,-0.019600,0.110953,-0.193776,0.216550,-0.012207,0.041992,-0.002197,0,-4500,4500,0
1333.535156,-3.949219,1.437500,-1.199219,0.000000,0.000000,-0.019186,0.111062,-0.193341,0.216463,0.008057,0.040527,0.002441,0,-4500,4500,0
1333.544922,-3.949219,1.437500,-1.195312,0.000000,0.000000,-0.015055,0.110987,-0.193030,0.216558,0.008057,0.040527,0.009277,0,-4500,4500,0
1333.554688,-3.949219,1.437500,-1.199219,0.000000,0.000000,-0.013451,0.111042,-0.192595,0.216740,0.004883,0.043701,0.014648,0,-4500,4500,0
1333.564453,-3.949219,1.437500,-1.199219,0.000000,0.000000,-0.011816,0.111158,-0.192222,0.216969,0.017334,0.041992,0.019043,0,-4500,4500,0
1333.574219,-3.949219,1.437500,-1.199219,0.000000,0.000000,-0.010696,0.111282,-0.191911,0.217212,0.013916,0.032471,0.023926,0,-4500,4500,0
1333.583984,-3.949219,1.437500,-1.199219,0.000000,0.000000,-0.008389,0.111522,-0.191662,0.217516,0.030029,0.029297,0.028809,0,-4500,4500,0
1333.593750,-3.949219,1.437500,-1.199219,0.000000,0.000000,-0.006269,0.111639,-0.191475,0.217806,0.020508,0.020264,0.027100,0,-4500,4500,0
1333.603516,-3.949219,1.437500,-1.199219,0.000000,0.000000,-0.004868,0.111769,-0.191351,0.218015,0.025391,0.006104,0.030518,0,-4500,4500,0
1333.613281,-3.949219,1.437500,-1.199219,0.000000,0.000000,-0.003357,0.111962,-0.191351,0.218224,0.029053,-0.003418,0.031982,0,-4500,4500,0
1333.623047,-3.949219,1.437500,-1.195312,0.000000,0.000000,0.000288,0.112209,-0.191413,0.218602,0.027832,-0.009766,0.033691,0,-4500,4500,0
1333.632812,-3.949219,1.437500,-1.195312,0.000000,0.000000,0.001566,0.112401,-0.191600,0.218871,0.025391,-0.011963,0.034668,0,-4500,4500,0
1333.642578,-3.949219,1.437500,-1.199219,-0.009998,0.000000,0.001612,0.112532,-0.191724,0.219128,0.017334,-0.011475,0.034668,0,-4500,4500,0
1333.652344,-3.949219,1.437500,-1.199219,-0.009998,0.000000,0.002295,0.112786,-0.191786,0.219519,0.028564,-0.008789,0.033691,0,-4500,4500,0
1333.662109,-3.949219,1.437500,-1.199219,-0.009998,0.000000,0.003214,0.112902,-0.191911,0.219748,0.023193,-0.000244,0.031006,0,-4500,4500,0
1333.671875,-3.949219,1.437500,-1.199219,-0.009998,0.000000,0.003006,0.113095,-0.191973,0.220018,0.016357,0.002930,0.027832,0,-4500,4500,0
1333.681641,-3.949219,1.437500,-1.199219,-0.009998,0.000000,0.003448,0.113287,-0.191973,0.220213,0.015869,0.006592,0.022461,0,-4500,4500,0
1333.691406,-3.949219,1.437500,-1.199219,-0.009998,0.000000,0.003334,0.113404,-0.192035,0.220335,0.023193,-0.000244,0.021484,0,-4500,4500,0
1333.701172,-3.957031,1.437500,-1.199219,0.000000,0.000000,0.002907,0.113596,-0.192035,0.220605,0.021973,-0.002930,0.017578,0,-4500,4500,0
1333.710938,-3.957031,1.437500,-1.195312,0.000000,0.000000,0.014076,0.113781,-0.192097,0.220591,0.009033,-0.012451,0.007568,0,-4500,4500,0
1333.719727,-3.957031,1.437500,-1.195312,0.000000,0.000000,0.014490,0.113919,-0.192222,0.220618,0.008545,-0.013428,0.002197,0,-4500,4500,0
1333.730469,-3.957031,1.437500,-1.195312,0.000000,0.000000,0.014246,0.113981,-0.192408,0.220618,0.011230,-0.015137,-0.002441,0,-4500,4500,0
1333.740234,-3.957031,1.437500,-1.191406,0.000000,0.000000,0.021673,0.114050,-0.192533,0.220483,0.003662,-0.012939,-0.007568,0,-4500,4500,0
1333.750000,-3.957031,1.437500,-1.191406,0.000000,0.000000,0.020924,0.114050,-0.192595,0.220423,-0.008057,-0.011963,-0.012939,0,-4500,4500,0
1333.759766,-3.957031,1.437500,-1.191406,0.000000,0.000000,0.020296,0.114057,-0.192657,0.220241,-0.007568,-0.005127,-0.015625,0,-4500,4500,0
1333.769531,-3.957031,1.437500,-1.191406,0.000000,0.000000,0.019207,0.114152,-0.192711,0.220095,-0.001709,-0.002441,-0.012451,0,-4500,4500,0
1333.779297,-3.957031,1.437500,-1.191406,0.000000,0.000000,0.024172,0.114064,-0.192719,0.219890,-0.006836,-0.002441,-0.015137,0,-4500,4500,0
1333.789062,-3.957031,1.437500,-1.191406,0.000000,0.000000,0.022968,0.114002,-0.192719,0.219769,-0.010010,-0.003906,-0.010254,0,-4500,4500,0
1333.798828,-3.957031,1.437500,-1.191406,0.000000,0.000000,0.021585,0.114009,-0.192843,0.219647,-0.000488,-0.013428,-0.008789,0,-4500,4500,0
1333.808594,-3.957031,1.437500,-1.191406,0.000000,0.000000,0.023312,0.114009,-0.192968,0.219465,0.009521,-0.013428,-0.001709,0,-4500,4500,0
1333.818359,-3.957031,1.437500,-1.191406,0.000000,0.000000,0.022539,0.114133,-0.193092,0.219391,0.009521,-0.006592,-0.001221,0,-4500,4500,0
1333.828125,-3.957031,1.437500,-1.191406,0.000000,0.000000,0.021255,0.114318,-0.193154,0.219391,0.009033,0.004639,-0.000732,0,-4500,4500,0
1333.837891,-3.957031,1.437500,-1.187500,0.000000,0.000000,0.022013,0.114449,-0.193030,0.219330,0.012695,0.021240,0.001221,0,-4500,4500,0
1333.847656,-3.957031,1.437500,-1.187500,0.000000,0.000000,0.021637,0.114620,-0.192657,0.219303,0.011719,0.038330,-0.005615,0,-4500,4500,0
1333.857422,-3.957031,1.437500,-1.191406,0.000000,0.000000,0.018810,0.114620,-0.192222,0.219303,0.002197,0.050049,-0.017334,0,-4500,4500,0
1333.867188,-3.957031,1.437500,-1.191406,0.000000,0.000000,0.018560,0.114831,-0.191735,0.219147,0.000000,0.046387,-0.029053,0,-4500,4500,0
1333.876953,-3.957031,1.437500,-1.187500,0.000000,0.000000,0.020546,0.114839,-0.191289,0.218784,0.008057,0.038818,-0.040039,0,-4500,4500,0
1333.886719,-3.957031,1.437500,-1.187500,0.000000,0.000000,0.020502,0.114900,-0.190854,0.218271,0.000977,0.032471,-0.049805,0,-4500,4500,0
1333.896484,-3.957031,1.437500,-1.187500,0.000000,0.000000,0.020786,0.115071,-0.190481,0.217732,-0.009033,0.027100,-0.057617,0,-4500,4500,0
1333.906250,-3.957031,1.437500,-1.187500,0.000000,-0.009998,0.022486,0.115133,-0.190232,0.217219,-0.009033,0.027832,-0.062988,0,-4500,4500,0
1333.916016,-3.957031,1.437500,-1.187500,0.000000,-0.009998,0.023422,0.115181,-0.189859,0.216559,-0.003174,0.033691,-0.062012,0,-4500,4500,0
1333.925781,-3.957031,1.437500,-1.187500,0.000000,-0.009998,0.024612,0.115242,-0.189362,0.215999,-0.006836,0.038818,-0.058105,0,-4500,4500,0
1333.935547,-3.957031,1.437500,-1.187500,0.000000,-0.009998,0.029510,0.115258,-0.188946,0.215533,-0.014893,0.042725,-0.059326,0,-4500,4500,0
1333.945312,-3.957031,1.437500,-1.187500,0.000000,-0.009998,0.030012,0.115214,-0.188430,0.214921,-0.006348,0.043701,-0.052979,0,-4500,4500,0
1333.955078,-3.957031,1.437500,-1.187500,0.000000,-0.009998,0.031252,0.115261,-0.187995,0.214383,-0.003174,0.037354,-0.044434,0,-4500,4500,0
1333.964844,-3.957031,1.437500,-1.187500,0.000000,-0.009998,0.033005,0.115268,-0.187622,0.214066,-0.003662,0.027832,-0.042236,0,-4500,4500,0
1333.974609,-3.957031,1.437500,-1.187500,0.000000,-0.009998,0.033394,0.115316,-0.187374,0.213528,-0.010742,0.014404,-0.041260,0,-4500,4500,0
1333.984375,-3.957031,1.437500,-1.187500,0.000000,-0.009998,0.035219,0.115323,-0.187250,0.213102,-0.005859,0.002441,-0.036377,0,-4500,4500,0
1333.994141,-3.957031,1.437500,-1.187500,0.000000,-0.009998,0.036758,0.115254,-0.187250,0.212786,-0.006348,-0.006592,-0.034180,0,-4500,4500,0
1334.003906,-3.957031,1.437500,-1.187500,0.000000,-0.009998,0.038639,0.115192,-0.187250,0.212334,-0.016602,-0.015625,-0.036865,0,-4500,4500,0
1334.013672,-3.957031,1.437500,-1.187500,0.000000,0.000000,0.040415,0.115123,-0.187436,0.211883,-0.025635,-0.024658,-0.038086,0,-4500,4500,0
1334.023438,-3.957031,1.437500,-1.187500,0.000000,0.000000,0.041887,0.114953,-0.187684,0.211519,-0.025635,-0.029053,-0.032227,0,-4500,4500,0
1334.033203,-3.957031,1.437500,-1.187500,0.000000,0.000000,0.042995,0.114713,-0.187933,0.211228,-0.023438,-0.032715,-0.029053,0,-4500,4500,0
1334.042969,-3.957031,1.437500,-1.187500,0.000000,-0.009998,0.041542,0.114459,-0.188181,0.210837,-0.030273,-0.030029,-0.026367,0,-4500,4500,0
1334.052734,-3.957031,1.437500,-1.187500,0.000000,-0.009998,0.042807,0.114103,-0.188430,0.210486,-0.041016,-0.031738,-0.024658,0,-4500,4500,0
1334.062500,-3.957031,1.437500,-1.187500,0.000000,-0.009998,0.043697,0.113787,-0.188741,0.210230,-0.031494,-0.029541,-0.018799,0,-4500,4500,0
1334.072266,-3.957031,1.437500,-1.187500,0.000000,0.000000,0.041611,0.113416,-0.189051,0.210060,-0.026611,-0.030029,-0.009766,0,-4500,4500,0
1334.082031,-3.957031,1.437500,-1.187500,0.000000,0.000000,0.042103,0.113114,-0.189362,0.209939,-0.031494,-0.033691,-0.003906,0,-4500,4500,0
1334.091797,-3.957031,1.437500,-1.187500,0.000000,0.000000,0.040236,0.112806,-0.189673,0.209891,-0.028320,-0.034912,0.003174,0,-4500,4500,0
1334.101562,-3.957031,1.437500,-1.187500,0.000000,0.000000,0.040676,0.112620,-0.189921,0.209891,-0.010742,-0.032715,0.011719,0,-4500,4500,0
1334.111328,-3.957031,1.437500,-1.187500,-0.009998,0.000000,0.038786,0.112435,-0.190232,0.209952,-0.005859,-0.031738,0.015625,0,-4500,4500,0
1334.120117,-3.957031,1.437500,-1.187500,-0.009998,0.000000,0.038767,0.112308,-0.190651,0.209973,-0.012695,-0.030518,0.017090,0,-4500,4500,0
1334.130859,-3.957031,1.437500,-1.187500,-0.009998,0.000000,0.038509,0.112147,-0.190978,0.210199,-0.003662,-0.029053,0.020752,0,-4500,4500,0
1334.140625,-3.957031,1.437500,-1.187500,-0.009998,0.000000,0.036085,0.112024,-0.191289,0.210320,0.007324,-0.025879,0.023438,0,-4500,4500,0
1334.150391,-3.957031,1.437500,-1.187500,-0.009998,0.000000,0.035755,0.111969,-0.191538,0.210468,0.003174,-0.021973,0.025635,0,-4500,4500,0
1334.160156,-3.957031,1.437500,-1.187500,-0.009998,0.000000,0.035044,0.111976,-0.191786,0.210798,0.005859,-0.014160,0.034668,0,-4500,4500,0
1334.169922,-3.957031,1.437500,-1.187500,-0.009998,0.000000,0.032736,0.112071,-0.191939,0.211171,0.003662,-0.009277,0.028809,0,-4500,4500,0
1334.179688,-3.957031,1.437500,-1.187500,-0.009998,0.000000,0.030560,0.112037,-0.192035,0.211310,0.020508,-0.005127,0.029785,0,-4500,4500,0
1334.189453,-3.957031,1.437500,-1.187500,-0.009998,0.000000,0.029797,0.112182,-0.192097,0.211593,0.015381,0.001953,0.032959,0,-4500,4500,0
1334.199219,-3.957031,1.437500,-1.187500,-0.009998,0.000000,0.028933,0.112168,-0.192097,0.211958,0.005859,0.001465,0.035645,0,-4500,4500,0
1334.208984,-3.957031,1.437500,-1.187500,-0.009998,0.000000,0.026073,0.112292,-0.192159,0.212275,0.031250,0.000244,0.038330,0,-4500,4500,0
1334.218750,-3.957031,1.437500,-1.187500,-0.009998,0.000000,0.024601,0.112422,-0.192159,0.212605,0.022705,0.001953,0.037354,0,-4500,4500,0
1334.228516,-3.957031,1.437500,-1.187500,-0.009998,0.000000,0.023418,0.112429,-0.192284,0.212996,0.016846,0.003418,0.046387,0,-4500,4500,0
1334.238281,-3.957031,1.437500,-1.187500,-0.009998,0.000000,0.019890,0.112601,-0.192346,0.213347,0.011719,0.006592,0.044678,0,-4500,4500,0
1334.248047,-3.957031,1.437500,-1.187500,-0.009998,0.000000,0.018240,0.112539,-0.192222,0.213921,0.014404,0.016113,0.053223,0,-4500,4500,0
1334.257812,-3.957031,1.437500,-1.187500,-0.009998,0.000000,0.016438,0.112662,-0.192097,0.214494,0.023682,0.025635,0.059570,0,-4500,4500,0
1334.267578,-3.957031,1.437500,-1.187500,-0.009998,0.000000,0.014610,0.112601,-0.191911,0.215128,0.011230,0.037354,0.053711,0,-4500,4500,0
1334.277344,-3.957031,1.437500,-1.187500,-0.009998,0.000000,0.011223,0.112710,-0.191413,0.215492,0.015869,0.058105,0.051758,0,-4500,4500,0
1334.287109,-3.957031,1.437500,-1.187500,-0.009998,0.000000,0.009775,0.112758,-0.190916,0.216086,0.012207,0.067139,0.047852,0,-4500,4500,0
1334.296875,-3.957031,1.437500,-1.187500,-0.009998,0.000000,0.008593,0.112820,-0.190170,0.216720,0.016846,0.085693,0.044189,0,-4500,4500,0
1334.306641,-3.957031,1.437500,-1.187500,-0.009998,0.000000,0.008163,0.112922,-0.189362,0.217118,0.011719,0.098389,0.031982,0,-4500,4500,0
1334.316406,-3.957031,1.437500,-1.187500,-0.009998,0.000000,0.006020,0.112963,-0.188492,0.217395,0.000000,0.101074,0.017578,0,-4500,4500,0
1334.326172,-3.957031,1.437500,-1.187500,-0.009998,0.000000,0.006971,0.113004,-0.187498,0.217672,0.005371,0.103271,0.007080,0,-4500,4500,0
1334.335938,-3.957031,1.437500,-1.187500,-0.009998,0.000000,0.006550,0.112990,-0.186504,0.217840,0.000977,0.103271,0.000244,0,-4500,4500,0
1334.345703,-3.957031,1.437500,-1.187500,0.000000,0.000000,0.004541,0.112962,-0.185510,0.217786,-0.003662,0.093262,-0.011475,0,-4500,4500,0
1334.355469,-3.957031,1.437500,-1.187500,0.000000,0.000000,0.004274,0.112948,-0.184703,0.217686,-0.004395,0.080322,-0.015137,0,-4500,4500,0
1334.365234,-3.957031,1.437500,-1.187500,0.000000,0.000000,0.004353,0.112920,-0.183710,0.217524,-0.000977,0.062744,-0.020020,0,-4500,4500,0
1334.375000,-3.957031,1.437500,-1.187500,0.000000,0.000000,0.002840,0.112851,-0.183213,0.217315,-0.000977,0.048584,-0.016602,0,-4500,4500,0
1334.384766,-3.957031,1.437500,-1.187500,0.000000,0.000000,0.002560,0.112844,-0.182841,0.217167,-0.008545,0.036133,-0.015625,0,-4500,4500,0
1334.394531,-3.957031,1.437500,-1.187500,0.000000,0.000000,0.002579,0.112830,-0.182468,0.217201,-0.006348,0.029785,-0.009277,0,-4500,4500,0
1334.404297,-3.957031,1.437500,-1.187500,0.000000,0.000000,0.001951,0.112768,-0.182096,0.217141,0.002686,0.031006,0.004883,0,-4500,4500,0
1334.414062,-3.957031,1.437500,-1.187500,0.000000,0.000000,0.001860,0.112693,-0.181786,0.217175,-0.001709,0.041504,0.012207,0,-4500,4500,0
1334.423828,-3.957031,1.437500,-1.187500,0.000000,0.000000,0.002745,0.112569,-0.181351,0.217309,-0.011719,0.048584,0.017578,0,-4500,4500,0
1334.433594,-3.957031,1.437500,-1.187500,0.000000,0.000000,0.003323,0.112562,-0.180855,0.217673,-0.009033,0.053711,0.025635,0,-4500,4500,0
1334.443359,-3.957031,1.429688,-1.191406,0.000000,0.000000,-0.007927,0.112418,-0.180421,0.217888,0.000977,0.059570,0.027100,0,-4500,4500,0
1334.453125,-3.957031,1.429688,-1.191406,0.000000,0.000000,-0.006973,0.112288,-0.179862,0.218205,0.000000,0.060059,0.027100,0,-4500,4500,0
1334.462891,-3.957031,1.429688,-1.191406,0.000000,0.000000,-0.005709,0.112205,-0.179242,0.218541,-0.002686,0.063965,0.020264,0,-4500,4500,0
1334.472656,-3.957031,1.429688,-1.191406,0.000000,0.000000,-0.012833,0.112260,-0.178684,0.218723,0.005371,0.059082,0.018066,0,-4500,4500,0
1334.482422,-3.957031,1.429688,-1.191406,0.000000,0.000000,-0.012949,0.112246,-0.178126,0.218877,0.010742,0.054932,0.017090,0,-4500,4500,0
1334.492188,-3.957031,1.429688,-1.191406,0.000000,0.000000,-0.011124,0.112239,-0.177691,0.219059,0.013184,0.044189,0.013428,0,-4500,4500,0
1334.501953,-3.957031,1.429688,-1.191406,0.000000,0.000000,-0.008808,0.112342,-0.177319,0.219274,0.016357,0.038330,0.011719,0,-4500,4500,0
1334.511719,-3.957031,1.429688,-1.195312,0.000000,0.000000,-0.012316,0.112527,-0.176885,0.219382,0.027832,0.033691,0.016113,0,-4500,4500,0
1334.521484,-3.957031,1.429688,-1.195312,0.000000,0.000000,-0.009390,0.112766,-0.176699,0.219563,0.031738,0.028320,0.017578,0,-4500,4500,0
1334.531250,-3.957031,1.429688,-1.195312,0.000000,0.000000,-0.006029,0.112965,-0.176327,0.219711,0.021484,0.020264,0.018066,0,-4500,4500,0
1334.540039,-3.957031,1.429688,-1.195312,-0.009998,0.000000,-0.006952,0.113143,-0.176389,0.219819,0.016846,0.001953,0.021484,0,-4500,4500,0
1334.550781,-3.957031,1.429688,-1.195312,-0.009998,0.000000,-0.003754,0.113334,-0.176327,0.220027,0.025391,-0.017822,0.020264,0,-4500,4500,0
1334.560547,-3.957031,1.429688,-1.195312,-0.009998,0.000000,-0.001070,0.113465,-0.176637,0.220223,0.032227,-0.032227,0.028320,0,-4500,4500,0
1334.570312,-3.957031,1.429688,-1.195312,-0.009998,0.000000,0.002087,0.113671,-0.177195,0.220519,0.026367,-0.056152,0.031982,0,-4500,4500,0
1334.580078,-3.957031,1.429688,-1.195312,-0.009998,0.000000,0.002083,0.113924,-0.177877,0.220714,0.027344,-0.074219,0.043701,0,-4500,4500,0
1334.589844,-3.957031,1.429688,-1.195312,-0.009998,0.000000,0.004841,0.114206,-0.178746,0.221145,0.032715,-0.092285,0.060303,0,-4500,4500,0
1334.599609,-3.957031,1.429688,-1.195312,-0.009998,0.000000,0.007647,0.114398,-0.179800,0.221670,0.035400,-0.106201,0.068604,0,-4500,4500,0
1334.609375,-3.957031,1.437500,-1.195312,0.000000,0.009998,0.019176,0.114699,-0.181066,0.222261,0.036377,-0.121582,0.071289,0,-4500,4500,0
1334.619141,-3.957031,1.437500,-1.195312,0.000000,0.009998,0.020826,0.114893,-0.182282,0.222742,0.033691,-0.133789,0.076172,0,-4500,4500,0
1334.628906,-3.957031,1.437500,-1.195312,0.000000,0.009998,0.022566,0.115114,-0.183772,0.223383,0.037109,-0.145508,0.079834,0,-4500,4500,0
1334.638672,-3.957031,1.437500,-1.195312,0.000000,0.009998,0.022840,0.115393,-0.185338,0.223976,0.030518,-0.151855,0.071289,0,-4500,4500,0
1334.648438,-3.957031,1.437500,-1.191406,0.000000,0.009998,0.029284,0.115494,-0.186939,0.224336,0.020020,-0.159424,0.062988,0,-4500,4500,0
1334.658203,-3.957031,1.437500,-1.191406,0.000000,0.009998,0.029423,0.115722,-0.188430,0.224796,0.016357,-0.149170,0.056396,0,-4500,4500,0
1334.667969,-3.957031,1.437500,-1.191406,0.000000,0.009998,0.029043,0.115689,-0.189984,0.225061,0.011230,-0.143311,0.050537,0,-4500,4500,0
1334.677734,-3.957031,1.437500,-1.191406,0.000000,0.009998,0.032351,0.115649,-0.191289,0.225224,-0.001709,-0.126953,0.037842,0,-4500,4500,0
1334.687500,-3.957031,1.437500,-1.191406,0.000000,0.009998,0.030743,0.115616,-0.192533,0.225461,-0.010742,-0.115723,0.028809,0,-4500,4500,0
1334.697266,-3.957031,1.437500,-1.191406,0.000000,0.009998,0.028927,0.115514,-0.193652,0.225456,-0.013916,-0.103027,0.021973,0,-4500,4500,0
1334.707031,-3.957031,1.437500,-1.191406,0.000000,0.009998,0.026304,0.115419,-0.194585,0.225512,-0.014893,-0.091309,0.016113,0,-4500,4500,0
1334.716797,-3.957031,1.437500,-1.191406,0.000000,0.009998,0.025555,0.115205,-0.195494,0.225616,-0.022461,-0.079102,0.007080,0,-4500,4500,0
1334.726562,-3.957031,1.437500,-1.191406,0.000000,0.009998,0.023277,0.114967,-0.196203,0.225609,-0.025146,-0.064209,0.000732,0,-4500,4500,0
1334.736328,-3.957031,1.437500,-1.191406,0.000000,0.009998,0.020327,0.114843,-0.196701,0.225488,-0.017090,-0.057617,-0.000732,0,-4500,4500,0
1334.746094,-3.957031,1.437500,-1.187500,0.000000,0.009998,0.017403,0.114734,-0.197198,0.225455,-0.012695,-0.038574,-0.001221,0,-4500,4500,0
1334.755859,-3.957031,1.449219,-1.187500,0.000000,0.000000,0.016565,0.114555,-0.197572,0.225273,-0.019775,-0.023682,-0.002441,0,-4500,4500,0
1334.765625,-3.957031,1.449219,-1.187500,0.000000,0.000000,0.012888,0.114370,-0.197634,0.225226,-0.018555,-0.001221,0.000244,0,-4500,4500,0
1334.775391,-3.957031,1.449219,-1.187500,0.000000,0.000000,0.010027,0.114170,-0.197634,0.225138,-0.015381,0.016602,-0.000732,0,-4500,4500,0
1334.785156,-3.957031,1.449219,-1.187500,0.000000,0.000000,0.007212,0.114108,-0.197323,0.225198,-0.008545,0.044189,-0.000732,0,-4500,4500,0
1334.794922,-3.957031,1.449219,-1.187500,0.000000,0.000000,0.003754,0.113894,-0.196763,0.225157,-0.017090,0.068115,-0.002441,0,-4500,4500,0
1334.804688,-3.957031,1.449219,-1.187500,0.000000,0.000000,0.001926,0.113819,-0.196078,0.225190,-0.000977,0.079346,-0.001709,0,-4500,4500,0
1334.814453,-3.957031,1.449219,-1.187500,0.000000,0.000000,0.001028,0.113743,-0.195145,0.225236,0.002197,0.087402,-0.003418,0,-4500,4500,0
1334.824219,-3.957031,1.449219,-1.187500,0.000000,0.000000,0.000196,0.113776,-0.194274,0.225302,0.003662,0.098389,-0.006592,0,-4500,4500,0
1334.833984,-3.957031,1.449219,-1.187500,0.000000,0.000000,-0.000748,0.113824,-0.193279,0.225335,0.018311,0.095947,-0.009766,0,-4500,4500,0
1334.843750,-3.957031,1.449219,-1.187500,0.000000,0.000000,-0.000927,0.114173,-0.192408,0.225205,0.020508,0.088379,-0.018311,0,-4500,4500,0
1334.853516,-3.957031,1.449219,-1.187500,0.000000,0.000000,-0.001104,0.114530,-0.191538,0.225056,0.037109,0.076172,-0.020020,0,-4500,4500,0
1334.863281,-3.957031,1.449219,-1.187500,0.000000,0.000000,-0.001110,0.114955,-0.190854,0.224954,0.046631,0.063477,-0.023193,0,-4500,4500,0
1334.873047,-3.957031,1.449219,-1.187500,0.000000,0.000000,-0.000175,0.115442,-0.190357,0.224730,0.040283,0.031982,-0.034180,0,-4500,4500,0
1334.882812,-3.957031,1.449219,-1.187500,0.000000,0.000000,-0.001034,0.116005,-0.190170,0.224413,0.061523,0.007812,-0.030029,0,-4500,4500,0
1334.892578,-3.957031,1.449219,-1.187500,0.000000,0.000000,-0.002474,0.116691,-0.190108,0.224097,0.077881,-0.010986,-0.025146,0,-4500,4500,0
1334.902344,-3.957031,1.449219,-1.187500,0.000000,0.000000,-0.003733,0.117432,-0.190232,0.223826,0.071045,-0.018311,-0.020508,0,-4500,4500,0
1334.912109,-3.957031,1.449219,-1.187500,0.000000,0.000000,-0.005823,0.118071,-0.190232,0.223598,0.059814,-0.008301,-0.008301,0,-4500,4500,0
1334.921875,-3.957031,1.449219,-1.187500,0.000000,0.000000,-0.008335,0.118741,-0.190212,0.223572,0.059814,0.018555,0.000732,0,-4500,4500,0
1334.931641,-3.957031,1.449219,-1.187500,0.000000,0.000000,-0.010130,0.119135,-0.189921,0.223645,0.044922,0.053711,0.018066,0,-4500,4500,0
1334.941406,-3.957031,1.449219,-1.187500,0.000000,0.000000,-0.012379,0.119367,-0.189238,0.223948,0.019531,0.083496,0.029297,0,-4500,4500,0
1334.951172,-3.957031,1.449219,-1.187500,0.000000,0.000000,-0.016193,0.119407,-0.188368,0.224405,0.000488,0.113281,0.032471,0,-4500,4500,0
1334.960938,-3.957031,1.449219,-1.187500,0.009998,0.000000,-0.016508,0.119261,-0.187250,0.224801,-0.008057,0.132080,0.036865,0,-4500,4500,0
1334.970703,-3.957031,1.449219,-1.187500,0.009998,0.000000,-0.017132,0.118985,-0.186007,0.225393,-0.017090,0.138916,0.041016,0,-4500,4500,0
1334.980469,-3.957031,1.449219,-1.187500,-0.009998,0.000000,-0.016489,0.118694,-0.184641,0.225835,-0.023926,0.136719,0.041016,0,-4500,4500,0
1334.990234,-3.957031,1.449219,-1.187500,-0.009998,0.000000,-0.016048,0.118364,-0.183462,0.226366,-0.029297,0.127197,0.037354,0,-4500,4500,0
1335.000000,-3.957031,1.449219,-1.187500,-0.009998,0.000000,-0.014748,0.117965,-0.182344,0.226957,-0.018066,0.122314,0.042236,0,-4500,4500,0
1335.009766,-3.957031,1.449219,-1.187500,-0.009998,0.000000,-0.013321,0.117812,-0.181227,0.227487,-0.010010,0.119141,0.036865,0,-4500,4500,0
1335.019531,-3.957031,1.449219,-1.187500,-0.019999,0.000000,-0.009848,0.117544,-0.180172,0.227882,-0.012207,0.111816,0.036865,0,-4500,4500,0
1335.029297,-3.957031,1.449219,-1.187500,-0.019999,0.000000,-0.008839,0.117515,-0.179180,0.228352,-0.000488,0.114014,0.035645,0,-4500,4500,0
1335.039062,-3.957031,1.449219,-1.187500,-0.019999,0.000000,-0.006010,0.117486,-0.178126,0.228868,0.021973,0.108643,0.040527,0,-4500,4500,0
1335.048828,-3.968750,1.437500,-1.187500,-0.019999,0.000000,-0.003181,0.117619,-0.177200,0.229310,0.031250,0.100586,0.038330,0,-4500,4500,0
1335.058594,-3.968750,1.437500,-1.191406,-0.019999,0.000000,-0.010992,0.117949,-0.176327,0.229671,0.037109,0.090088,0.040039,0,-4500,4500,0
1335.068359,-3.968750,1.437500,-1.191406,-0.019999,0.000000,-0.007761,0.118365,-0.175521,0.230139,0.055176,0.080811,0.035645,0,-4500,4500,0
1335.078125,-3.968750,1.437500,-1.191406,-0.019999,-0.009998,-0.004761,0.118966,-0.174778,0.230668,0.075195,0.077148,0.033691,0,-4500,4500,0
1335.087891,-3.968750,1.437500,-1.191406,-0.019999,-0.009998,-0.008018,0.119589,-0.174034,0.230803,0.076416,0.077637,0.031494,0,-4500,4500,0
1335.097656,-3.968750,1.437500,-1.191406,-0.019999,-0.009998,-0.004152,0.120273,-0.173228,0.231165,0.065674,0.082031,0.025635,0,-4500,4500,0
1335.107422,-3.968750,1.437500,-1.195312,-0.019999,-0.009998,-0.002844,0.120996,-0.172547,0.231453,0.070557,0.082520,0.014893,0,-4500,4500,0
1335.117188,-3.968750,1.437500,-1.195312,-0.009998,-0.009998,-0.003738,0.121734,-0.171679,0.231545,0.071533,0.076660,0.006348,0,-4500,4500,0
1335.126953,-3.968750,1.437500,-1.195312,-0.009998,-0.009998,0.000778,0.122334,-0.170998,0.231502,0.062012,0.063965,-0.011963,0,-4500,4500,0
1335.136719,-3.968750,1.437500,-1.195312,-0.009998,-0.009998,0.004988,0.122949,-0.170503,0.231428,0.048584,0.033691,-0.033691,0,-4500,4500,0
1335.146484,-3.968750,1.437500,-1.195312,-0.009998,-0.009998,0.008501,0.123499,-0.170316,0.231044,0.040283,-0.001221,-0.051270,0,-4500,4500,0
1335.156250,-3.968750,1.437500,-1.195312,-0.009998,-0.009998,0.008171,0.123955,-0.170441,0.230286,0.032227,-0.040039,-0.065186,0,-4500,4500,0
1335.166016,-3.968750,1.437500,-1.195312,-0.009998,-0.009998,0.010672,0.124263,-0.170936,0.229519,0.006836,-0.079102,-0.083740,0,-4500,4500,0
1335.175781,-3.968750,1.437500,-1.195312,-0.009998,-0.009998,0.012482,0.124416,-0.171741,0.228433,-0.014404,-0.104492,-0.091797,0,-4500,4500,0
1335.185547,-3.968750,1.437500,-1.195312,-0.009998,-0.019999,0.013357,0.124432,-0.172795,0.227259,-0.026611,-0.124268,-0.096436,0,-4500,4500,0
1335.195312,-3.968750,1.437500,-1.195312,-0.009998,-0.019999,0.014462,0.124324,-0.173910,0.226204,-0.040039,-0.132812,-0.095947,0,-4500,4500,0
1335.205078,-3.968750,1.437500,-1.195312,-0.009998,-0.019999,0.014385,0.123932,-0.175026,0.225070,-0.069824,-0.132812,-0.093750,0,-4500,4500,0
1335.214844,-3.968750,1.437500,-1.195312,-0.009998,-0.019999,0.014057,0.123386,-0.176141,0.224029,-0.086182,-0.124268,-0.083252,0,-4500,4500,0
1335.224609,-3.968750,1.437500,-1.195312,-0.009998,-0.019999,0.013201,0.122540,-0.177257,0.223182,-0.094727,-0.110352,-0.068848,0,-4500,4500,0
1335.234375,-3.968750,1.437500,-1.195312,0.000000,-0.019999,0.008389,0.121732,-0.178188,0.222295,-0.099609,-0.098145,-0.053955,0,-4500,4500,0
1335.244141,-3.968750,1.437500,-1.195312,0.000000,-0.019999,0.006689,0.120762,-0.179118,0.221731,-0.115967,-0.093994,-0.044434,0,-4500,4500,0
1335.253906,-3.968750,1.437500,-1.195312,0.000000,-0.019999,0.002567,0.119722,-0.179924,0.221125,-0.115967,-0.088623,-0.033691,0,-4500,4500,0
1335.263672,-3.968750,1.437500,-1.195312,0.000000,-0.019999,-0.001368,0.118667,-0.180731,0.220823,-0.104248,-0.083740,-0.021973,0,-4500,4500,0
1335.273438,-3.968750,1.437500,-1.195312,0.000000,-0.019999,-0.003963,0.117812,-0.181413,0.220547,-0.094238,-0.074707,-0.014648,0,-4500,4500,0
1335.283203,-3.957031,1.429688,-1.199219,0.000000,-0.019999,-0.007217,0.116888,-0.182096,0.220184,-0.089844,-0.068848,-0.013428,0,-4500,4500,0
1335.292969,-3.957031,1.429688,-1.199219,0.000000,-0.019999,-0.009525,0.116209,-0.182717,0.220015,-0.074463,-0.054932,-0.013428,0,-4500,4500,0
1335.302734,-3.957031,1.429688,-1.199219,0.000000,-0.019999,-0.012720,0.115600,-0.183213,0.219787,-0.046875,-0.040771,-0.010742,0,-4500,4500,0
1335.312500,-3.957031,1.429688,-1.199219,0.000000,-0.019999,-0.015629,0.115281,-0.183551,0.219626,-0.030273,-0.025146,-0.018311,0,-4500,4500,0
1335.322266,-3.957031,1.429688,-1.199219,0.000000,-0.019999,-0.018784,0.115045,-0.183648,0.219302,-0.014404,-0.004395,-0.023682,0,-4500,4500,0
1335.332031,-3.957031,1.429688,-1.199219,0.000000,-0.019999,-0.022020,0.115038,-0.183586,0.218972,0.009033,0.016602,-0.030518,0,-4500,4500,0
1335.341797,-3.957031,1.429688,-1.199219,0.000000,-0.019999,-0.022327,0.115285,-0.183337,0.218629,0.032715,0.030273,-0.040039,0,-4500,4500,0
1335.351562,-3.957031,1.429688,-1.199219,0.000000,-0.009998,-0.025698,0.115778,-0.182903,0.218238,0.048096,0.051758,-0.045898,0,-4500,4500,0
1335.361328,-3.957031,1.429688,-1.199219,0.000000,-0.009998,-0.028461,0.116394,-0.182220,0.217774,0.056641,0.068115,-0.053467,0,-4500,4500,0
1335.371094,-3.957031,1.429688,-1.199219,0.000000,-0.009998,-0.030676,0.117065,-0.181475,0.217309,0.068848,0.080322,-0.062012,0,-4500,4500,0
1335.380859,-3.957031,1.429688,-1.199219,-0.009998,-0.019999,-0.032175,0.117859,-0.180483,0.216636,0.077881,0.094727,-0.067139,0,-4500,4500,0
1335.390625,-3.957031,1.429688,-1.199219,-0.009998,-0.019999,-0.033205,0.118645,-0.179428,0.216072,0.070068,0.106445,-0.071045,0,-4500,4500,0
1335.400391,-3.957031,1.429688,-1.199219,-0.009998,-0.019999,-0.033306,0.119431,-0.178188,0.215399,0.061523,0.114502,-0.077881,0,-4500,4500,0
1335.410156,-3.957031,1.429688,-1.199219,-0.009998,-0.019999,-0.033230,0.120264,-0.176947,0.214809,0.062012,0.118652,-0.077393,0,-4500,4500,0
1335.419922,-3.957031,1.429688,-1.199219,-0.009998,-0.009998,-0.033592,0.120872,-0.175707,0.214090,0.052979,0.114990,-0.077393,0,-4500,4500,0
1335.429688,-3.957031,1.429688,-1.199219,-0.009998,-0.009998,-0.032990,0.121472,-0.174654,0.213479,0.049316,0.102783,-0.065186,0,-4500,4500,0
1335.439453,-3.957031,1.429688,-1.199219,-0.009998,-0.009998,-0.032122,0.122011,-0.173662,0.213050,0.031250,0.092041,-0.059814,0,-4500,4500,0
1335.449219,-3.957031,1.429688,-1.199219,-0.009998,-0.009998,-0.030188,0.122295,-0.172733,0.212621,0.019531,0.082520,-0.044434,0,-4500,4500,0
1335.458984,-3.957031,1.429688,-1.199219,-0.009998,-0.009998,-0.027122,0.122465,-0.171803,0.212266,0.015381,0.078369,-0.033691,0,-4500,4500,0
1335.468750,-3.957031,1.429688,-1.199219,-0.009998,-0.009998,-0.025024,0.122573,-0.171122,0.212058,-0.018066,0.064453,-0.022461,0,-4500,4500,0
1335.478516,-3.957031,1.429688,-1.199219,-0.009998,-0.009998,-0.022417,0.122442,-0.170503,0.211984,-0.017578,0.057617,-0.005615,0,-4500,4500,0
1335.488281,-3.957031,1.429688,-1.199219,-0.009998,-0.009998,-0.019741,0.122243,-0.170007,0.212079,-0.022949,0.047363,0.005859,0,-4500,4500,0
1335.498047,-3.957031,1.429688,-1.199219,0.000000,0.000000,-0.014977,0.121859,-0.169574,0.212127,-0.035156,0.037842,0.020264,0,-4500,4500,0
1335.507812,-3.957031,1.429688,-1.199219,0.000000,0.000000,-0.011806,0.121482,-0.169388,0.212443,-0.041504,0.015381,0.028320,0,-4500,4500,0
1335.517578,-3.957031,1.429688,-1.203125,0.000000,0.000000,-0.018049,0.120983,-0.169326,0.212637,-0.040039,-0.001221,0.029297,0,-4500,4500,0
1335.527344,-3.957031,1.429688,-1.203125,0.000000,0.000000,-0.014982,0.120607,-0.169450,0.212953,-0.043701,-0.018799,0.034180,0,-4500,4500,0
1335.537109,-3.957031,1.429688,-1.203125,0.000000,0.000000,-0.012657,0.120000,-0.169821,0.213234,-0.042480,-0.038086,0.039551,0,-4500,4500,0
1335.546875,-3.957031,1.429688,-1.203125,0.000000,0.000000,-0.010973,0.119515,-0.170255,0.213576,-0.042480,-0.045410,0.032959,0,-4500,4500,0
1335.556641,-3.957031,1.429688,-1.203125,0.000000,0.000000,-0.016102,0.119146,-0.170688,0.213711,-0.037354,-0.044434,0.031494,0,-4500,4500,0
1335.566406,-3.957031,1.429688,-1.203125,0.000000,0.000000,-0.014626,0.118784,-0.171184,0.213919,-0.025635,-0.042236,0.026611,0,-4500,4500,0
1335.576172,-3.957031,1.429688,-1.203125,0.000000,0.000000,-0.011665,0.118531,-0.171556,0.214053,-0.017578,-0.035400,0.020752,0,-4500,4500,0
1335.585938,-3.957031,1.429688,-1.203125,0.000000,0.000000,-0.016039,0.118423,-0.171927,0.214140,-0.015869,-0.027832,0.019775,0,-4500,4500,0
1335.595703,-3.957031,1.429688,-1.203125,0.000000,0.000000,-0.015713,0.118253,-0.172237,0.214287,-0.002686,-0.033203,0.015625,0,-4500,4500,0
1335.605469,-3.957031,1.429688,-1.203125,0.000000,0.000000,-0.015621,0.118184,-0.172547,0.214469,0.012695,-0.032227,0.014404,0,-4500,4500,0
1335.615234,-3.957031,1.429688,-1.203125,0.000000,0.000000,-0.015932,0.118321,-0.172857,0.214495,0.020020,-0.031738,0.008057,0,-4500,4500,0
1335.625000,-3.957031,1.429688,-1.207031,0.000000,0.000000,-0.020052,0.118582,-0.173228,0.214387,0.021484,-0.031006,0.003906,0,-4500,4500,0
1335.634766,-3.957031,1.429688,-1.207031,0.000000,0.000000,-0.020576,0.118828,-0.173476,0.214374,0.027832,-0.031006,0.000732,0,-4500,4500,0
1335.644531,-3.957031,1.429688,-1.207031,0.000000,0.000000,-0.021353,0.119151,-0.173786,0.214340,0.038086,-0.018311,0.001709,0,-4500,4500,0
1335.654297,-3.957031,1.429688,-1.203125,0.000000,0.000000,-0.015440,0.119520,-0.173910,0.214266,0.032715,-0.011475,-0.001221,0,-4500,4500,0
1335.664062,-3.957031,1.429688,-1.203125,0.000000,0.000000,-0.016087,0.119869,-0.173953,0.214273,0.024658,0.002441,-0.000244,0,-4500,4500,0
1335.673828,-3.957031,1.429688,-1.203125,0.000000,0.000000,-0.016685,0.120089,-0.173972,0.214219,0.031738,0.007812,0.000732,0,-4500,4500,0
1335.683594,-3.957031,1.429688,-1.203125,0.000000,0.000000,-0.010082,0.120335,-0.173910,0.214206,0.031738,0.007324,-0.000732,0,-4500,4500,0
1335.693359,-3.957031,1.429688,-1.203125,0.000000,0.000000,-0.010788,0.120581,-0.173910,0.214145,0.020020,0.003418,0.000244,0,-4500,4500,0
1335.703125,-3.957031,1.429688,-1.203125,0.000000,0.000000,-0.011778,0.120765,-0.173910,0.214132,0.015869,-0.003418,-0.001709,0,-4500,4500,0
1335.712891,-3.957031,1.429688,-1.203125,0.000000,0.000000,-0.012737,0.120965,-0.173848,0.214158,0.020996,-0.004395,0.003174,0,-4500,4500,0
1335.722656,-3.957031,1.429688,-1.203125,0.000000,0.000000,-0.008038,0.121088,-0.173910,0.214158,0.014404,-0.004395,0.011230,0,-4500,4500,0
1335.732422,-3.957031,1.429688,-1.203125,0.000000,0.000000,-0.009144,0.121088,-0.173972,0.214219,-0.000977,0.000732,0.012207,0,-4500,4500,0
1335.742188,-3.957031,1.429688,-1.203125,0.000000,0.000000,-0.010323,0.121142,-0.174034,0.214266,-0.002686,0.015381,0.015625,0,-4500,4500,0
1335.750977,-3.957031,1.429688,-1.199219,0.000000,0.000000,-0.007425,0.121034,-0.173724,0.214548,-0.000488,0.032959,0.028320,0,-4500,4500,0
1335.761719,-3.957031,1.429688,-1.199219,0.000000,0.000000,-0.008133,0.120903,-0.173414,0.214911,-0.002197,0.051025,0.030518,0,-4500,4500,0
1335.771484,-3.957031,1.429688,-1.199219,0.000000,0.000000,-0.008427,0.120827,-0.172981,0.215274,-0.010010,0.051025,0.036865,0,-4500,4500,0
1335.781250,-3.957031,1.429688,-1.199219,0.000000,0.000000,-0.005848,0.120620,-0.172547,0.215685,-0.006836,0.047363,0.041016,0,-4500,4500,0
1335.790161,-3.957031,1.429688,-1.199219,0.000000,0.000000,-0.006729,0.120544,-0.172175,0.216109,0.007324,0.038818,0.045410,0,-4500,4500,0
1335.800781,-3.957031,1.429688,-1.199219,0.000000,0.000000,-0.007793,0.120536,-0.171989,0.216653,0.008057,0.019287,0.045410,0,-4500,4500,0
1335.810547,-3.957031,1.429688,-1.199219,0.000000,0.000000,-0.008961,0.120475,-0.171803,0.216982,0.010010,0.010986,0.039551,0,-4500,4500,0
1335.820312,-3.957031,1.429688,-1.203125,0.000000,0.000000,-0.018244,0.120529,-0.171803,0.217224,0.021973,0.000244,0.035156,0,-4500,4500,0
1335.830078,-3.957031,1.429688,-1.203125,0.000000,0.000000,-0.019106,0.120721,-0.171865,0.217540,0.027832,-0.000244,0.028809,0,-4500,4500,0
1335.839844,-3.957031,1.429688,-1.203125,0.000000,0.000000,-0.019829,0.120913,-0.171741,0.217809,0.018799,0.016602,0.025146,0,-4500,4500,0
1335.849609,-3.957031,1.429688,-1.203125,0.000000,0.000000,-0.020433,0.121180,-0.171475,0.218130,0.015869,0.041504,0.017090,0,-4500,4500,0
1335.859375,-3.957031,1.429688,-1.203125,0.000000,0.000000,-0.026262,0.121274,-0.170936,0.218158,0.017334,0.070801,0.010742,0,-4500,4500,0
1335.869141,-3.957031,1.429688,-1.203125,0.000000,0.000000,-0.026051,0.121389,-0.170131,0.218340,0.021484,0.092041,0.002686,0,-4500,4500,0
1335.878906,-3.957031,1.429688,-1.203125,0.000000,0.000000,-0.025295,0.121544,-0.169140,0.218407,0.011719,0.112793,-0.006104,0,-4500,4500,0
1335.888672,-3.957031,1.429688,-1.207031,-0.009998,-0.009998,-0.029131,0.121760,-0.168026,0.218353,0.003662,0.121338,-0.010254,0,-4500,4500,0
1335.898438,-3.957031,1.429688,-1.207031,-0.009998,-0.009998,-0.027174,0.121860,-0.166788,0.218421,0.014893,0.124512,-0.016113,0,-4500,4500,0
1335.908203,-3.957031,1.429688,-1.207031,-0.009998,-0.009998,-0.023829,0.121968,-0.165488,0.218394,0.017822,0.127686,-0.017822,0,-4500,4500,0
1335.917969,-3.957031,1.429688,-1.207031,-0.009998,-0.009998,-0.022383,0.122129,-0.164189,0.218219,0.006348,0.136719,-0.021484,0,-4500,4500,0
1335.927734,-3.957031,1.429688,-1.207031,-0.009998,-0.009998,-0.017984,0.122283,-0.162828,0.218105,0.000000,0.137451,-0.024658,0,-4500,4500,0
1335.937500,-3.957031,1.429688,-1.207031,-0.009998,-0.009998,-0.013121,0.122138,-0.161405,0.218052,-0.000977,0.130859,-0.023682,0,-4500,4500,0
1335.947266,-3.957031,1.429688,-1.207031,-0.009998,-0.009998,-0.008257,0.122177,-0.160169,0.217891,0.000488,0.115479,-0.027344,0,-4500,4500,0
1335.957031,-3.957031,1.429688,-1.207031,0.000000,-0.009998,-0.004698,0.122154,-0.159118,0.217596,-0.009033,0.086670,-0.034180,0,-4500,4500,0
1335.966797,-3.957031,1.429688,-1.207031,0.000000,-0.009998,-0.002050,0.122147,-0.158438,0.217328,-0.010010,0.051758,-0.040039,0,-4500,4500,0
1335.976562,-3.957031,1.429688,-1.207031,0.000000,-0.009998,0.002310,0.122124,-0.158067,0.216973,0.001465,0.009766,-0.040039,0,-4500,4500,0
1335.986328,-3.957031,1.429688,-1.207031,-0.009998,-0.009998,0.016525,0.122124,-0.158005,0.216403,0.000488,-0.031006,-0.042725,0,-4500,4500,0
1335.996094,-3.957031,1.429688,-1.207031,-0.009998,-0.009998,0.018673,0.122063,-0.158562,0.215894,-0.005371,-0.068359,-0.042236,0,-4500,4500,0
1336.005859,-3.957031,1.429688,-1.203125,-0.009998,-0.009998,0.019411,0.122016,-0.159303,0.215411,-0.012207,-0.094482,-0.036377,0,-4500,4500,0
1336.015625,-3.957031,1.429688,-1.203125,-0.009998,-0.009998,0.018923,0.121916,-0.160045,0.214967,-0.014404,-0.085449,-0.024658,0,-4500,4500,0
1336.025391,-3.957031,1.429688,-1.203125,0.000000,0.000000,0.024782,0.121678,-0.160787,0.214605,-0.022949,-0.067383,-0.014160,0,-4500,4500,0
1336.035156,-3.957031,1.429688,-1.203125,0.000000,0.000000,0.022253,0.121256,-0.161282,0.214497,-0.051025,-0.032715,0.003906,0,-4500,4500,0
1336.044922,-3.957031,1.429688,-1.203125,0.000000,0.000000,0.018822,0.120642,-0.161405,0.214631,-0.070312,0.010498,0.018066,0,-4500,4500,0
1336.054688,-3.957031,1.429688,-1.203125,0.000000,0.000000,0.019260,0.119898,-0.161220,0.214899,-0.065430,0.051758,0.043213,0,-4500,4500,0
1336.064453,-3.957031,1.429688,-1.203125,0.000000,0.000000,0.014303,0.118994,-0.160540,0.215416,-0.075684,0.091064,0.062988,0,-4500,4500,0
1336.074219,-3.957031,1.429688,-1.203125,0.000000,0.000000,0.009134,0.118044,-0.159551,0.216262,-0.076660,0.133057,0.073975,0,-4500,4500,0
1336.083008,-3.957031,1.429688,-1.203125,0.000000,0.000000,0.003887,0.117026,-0.158252,0.217228,-0.074951,0.140625,0.087402,0,-4500,4500,0
1336.093750,-3.957031,1.429688,-1.199219,0.000000,0.009998,0.002148,0.116008,-0.156831,0.218146,-0.074951,0.155518,0.096436,0,-4500,4500,0
1336.103516,-3.957031,1.429688,-1.199219,0.000000,0.009998,-0.003483,0.115044,-0.155534,0.219352,-0.071289,0.150146,0.100586,0,-4500,4500,0
1336.113281,-3.957031,1.429688,-1.199219,0.000000,0.009998,-0.009438,0.114081,-0.154236,0.220498,-0.077148,0.136230,0.104980,0,-4500,4500,0
1336.123047,-3.957031,1.429688,-1.199219,-0.009998,0.009998,-0.012663,0.113201,-0.153063,0.221549,-0.064941,0.132080,0.102783,0,-4500,4500,0
1336.132812,-3.957031,1.429688,-1.199219,-0.009998,0.009998,-0.017794,0.112376,-0.151890,0.222781,-0.050537,0.136230,0.111816,0,-4500,4500,0
1336.142578,-3.957031,1.429688,-1.199219,-0.009998,0.009998,-0.022104,0.111659,-0.150655,0.224032,-0.050537,0.164551,0.109131,0,-4500,4500,0
1336.152344,-3.957031,1.429688,-1.199219,-0.009998,0.009998,-0.025785,0.110950,-0.148988,0.225203,-0.062744,0.189453,0.105469,0,-4500,4500,0
1336.162109,-3.957031,1.429688,-1.199219,-0.009998,0.009998,-0.026440,0.110310,-0.147075,0.226359,-0.041992,0.221436,0.112305,0,-4500,4500,0
1336.171875,-3.957031,1.429688,-1.199219,-0.009998,0.009998,-0.028400,0.109710,-0.144916,0.227728,-0.036621,0.258057,0.107666,0,-4500,4500,0
1336.181641,-3.957031,1.429688,-1.199219,-0.009998,0.009998,-0.029823,0.109179,-0.142326,0.229050,-0.027588,0.281006,0.108643,0,-4500,4500,0
1336.191406,-3.957031,1.429688,-1.203125,-0.009998,0.019999,-0.039597,0.108813,-0.139675,0.230268,-0.016602,0.284668,0.097900,0,-4500,4500,0
1336.201172,-3.957031,1.429688,-1.203125,-0.009998,0.019999,-0.036860,0.108711,-0.137025,0.231500,0.018799,0.293213,0.094238,0,-4500,4500,0
1336.210938,-3.957031,1.429688,-1.203125,-0.009998,0.019999,-0.035765,0.108868,-0.134376,0.232713,0.038574,0.254883,0.086182,0,-4500,4500,0
1336.220703,-3.957031,1.437500,-1.203125,0.000000,0.019999,-0.041054,0.109202,-0.132159,0.233509,0.059326,0.222412,0.073486,0,-4500,4500,0
1336.230469,-3.957031,1.437500,-1.203125,0.000000,0.019999,-0.039259,0.109855,-0.130312,0.234333,0.085938,0.183594,0.059570,0,-4500,4500,0
1336.239258,-3.957031,1.437500,-1.203125,0.000000,0.019999,-0.036781,0.110712,-0.128774,0.235066,0.113525,0.140625,0.052734,0,-4500,4500,0
1336.250000,-3.957031,1.437500,-1.203125,0.000000,0.019999,-0.034363,0.111928,-0.127481,0.235665,0.135498,0.115967,0.043213,0,-4500,4500,0
1336.259766,-3.957031,1.437500,-1.207031,0.000000,0.009998,-0.035660,0.113219,-0.126497,0.235949,0.137451,0.097412,0.029785,0,-4500,4500,0
1336.269531,-3.957031,1.437500,-1.207031,0.000000,0.009998,-0.032637,0.114503,-0.125697,0.236308,0.135986,0.085693,0.021484,0,-4500,4500,0
1336.279297,-3.957031,1.437500,-1.207031,0.000000,0.009998,-0.030655,0.115862,-0.124897,0.236533,0.138184,0.076660,0.007568,0,-4500,4500,0
1336.289062,-3.957031,1.437500,-1.207031,0.009998,0.009998,-0.031059,0.117206,-0.124221,0.236370,0.125244,0.059082,-0.006104,0,-4500,4500,0
1336.298828,-3.957031,1.437500,-1.207031,0.009998,0.009998,-0.029249,0.118320,-0.123667,0.236311,0.104492,0.045166,-0.020508,0,-4500,4500,0
1336.308594,-3.957031,1.437500,-1.207031,0.009998,0.009998,-0.027500,0.119243,-0.123237,0.236102,0.089600,0.035156,-0.038574,0,-4500,4500,0
1336.318359,-3.957031,1.437500,-1.207031,0.009998,0.009998,-0.026392,0.120106,-0.122929,0.235729,0.071533,0.025635,-0.047607,0,-4500,4500,0
1336.328125,-3.957031,1.437500,-1.207031,0.009998,0.000000,-0.026522,0.120655,-0.122622,0.235134,0.048096,0.018066,-0.046631,0,-4500,4500,0
1336.337891,-3.957031,1.437500,-1.207031,0.009998,0.000000,-0.025505,0.121021,-0.122314,0.234626,0.013916,0.026611,-0.052002,0,-4500,4500,0
1336.347656,-3.957031,1.437500,-1.207031,0.009998,0.000000,-0.025045,0.121144,-0.122068,0.234119,-0.005859,0.021240,-0.053223,0,-4500,4500,0
1336.357422,-3.957031,1.437500,-1.207031,0.009998,0.000000,-0.023603,0.121136,-0.121884,0.233524,-0.023926,0.010498,-0.047363,0,-4500,4500,0
1336.366211,-3.957031,1.437500,-1.207031,0.009998,0.000000,-0.023039,0.120823,-0.121822,0.233151,-0.045166,0.008301,-0.039307,0,-4500,4500,0
1336.376953,-3.957031,1.437500,-1.207031,0.009998,0.000000,-0.022303,0.120320,-0.121638,0.232749,-0.058594,0.002441,-0.031738,0,-4500,4500,0
1336.385742,-3.957031,1.437500,-1.207031,0.009998,0.000000,-0.021767,0.119817,-0.121638,0.232555,-0.065430,0.001465,-0.022705,0,-4500,4500,0
1336.396484,-3.957031,1.437500,-1.207031,0.009998,0.000000,-0.021067,0.118901,-0.121638,0.232196,-0.070801,-0.005127,-0.010010,0,-4500,4500,0
1336.406250,-3.957031,1.437500,-1.207031,0.009998,0.000000,-0.019958,0.118161,-0.121638,0.232182,-0.076660,-0.004395,0.001465,0,-4500,4500,0
1336.416016,-3.957031,1.437500,-1.207031,0.009998,0.000000,-0.019308,0.117475,-0.121761,0.232122,-0.076172,-0.008301,0.001465,0,-4500,4500,0
1336.425781,-3.957031,1.437500,-1.207031,0.000000,0.000000,-0.018610,0.116796,-0.121884,0.231929,-0.070312,-0.017334,0.006104,0,-4500,4500,0
1336.435547,-3.957031,1.437500,-1.207031,0.000000,0.000000,-0.016975,0.116185,-0.122068,0.232017,-0.056885,-0.013428,0.008301,0,-4500,4500,0
1336.445312,-3.957031,1.437500,-1.207031,0.000000,0.000000,-0.015684,0.115690,-0.122191,0.232091,-0.040527,-0.008789,0.005615,0,-4500,4500,0
1336.455078,-3.957031,1.437500,-1.207031,0.000000,0.000000,-0.014019,0.115316,-0.122253,0.232003,-0.031982,0.000732,0.004150,0,-4500,4500,0
1336.464844,-3.957031,1.437500,-1.207031,0.000000,0.000000,-0.012838,0.115194,-0.122191,0.232017,-0.006836,0.012451,0.004150,0,-4500,4500,0
1336.474609,-3.957031,1.437500,-1.207031,0.000000,0.000000,-0.011410,0.115194,-0.122007,0.232017,0.025879,0.022461,0.000977,0,-4500,4500,0
1336.484375,-3.957031,1.437500,-1.207031,0.000000,0.000000,-0.009573,0.115560,-0.121761,0.232003,0.039062,0.032959,-0.001953,0,-4500,4500,0
1336.494141,-3.957031,1.437500,-1.207031,0.000000,0.000000,-0.008299,0.116049,-0.121515,0.231989,0.060303,0.025635,-0.013184,0,-4500,4500,0
1336.503906,-3.957031,1.437500,-1.207031,0.000000,0.000000,-0.006058,0.116850,-0.121207,0.231661,0.084229,0.020264,-0.023438,0,-4500,4500,0
1336.513672,-3.957031,1.437500,-1.207031,0.000000,0.000000,-0.004202,0.117827,-0.121023,0.231453,0.108398,0.009277,-0.029785,0,-4500,4500,0
1336.523438,-3.957031,1.437500,-1.207031,0.000000,0.000000,-0.002996,0.119002,-0.120900,0.230886,0.111572,0.009277,-0.042480,0,-4500,4500,0
1336.533203,-3.957031,1.437500,-1.207031,0.000000,0.000000,-0.001619,0.120069,-0.120715,0.230348,0.111572,-0.003418,-0.053223,0,-4500,4500,0
1336.542969,-3.957031,1.437500,-1.207031,0.000000,0.000000,-0.000172,0.121121,-0.120654,0.229901,0.107666,-0.001221,-0.060547,0,-4500,4500,0
1336.552734,-3.957031,1.437500,-1.207031,0.000000,0.000000,0.000689,0.122418,-0.120592,0.229200,0.107666,0.000732,-0.062256,0,-4500,4500,0
1336.562500,-3.957031,1.437500,-1.207031,0.000000,0.000000,0.002081,0.123417,-0.120469,0.228453,0.088623,-0.001221,-0.063232,0,-4500,4500,0
1336.572266,-3.957031,1.437500,-1.207031,0.000000,0.000000,0.003248,0.124347,-0.120469,0.227827,0.072754,-0.002441,-0.061768,0,-4500,4500,0
1336.582031,-3.957031,1.437500,-1.207031,0.000000,0.000000,0.003807,0.125079,-0.120408,0.227292,0.068848,-0.004395,-0.055908,0,-4500,4500,0
1336.591797,-3.957031,1.437500,-1.207031,0.000000,0.000000,0.002886,0.125705,-0.120408,0.226739,0.055176,-0.010986,-0.045654,0,-4500,4500,0
1336.601562,-3.957031,1.437500,-1.207031,0.000000,0.000000,0.004248,0.126254,-0.120469,0.226218,0.031250,-0.014648,-0.037109,0,-4500,4500,0
1336.611328,-3.957031,1.437500,-1.207031,0.000000,0.000000,0.005184,0.126666,-0.120550,0.225944,0.016846,-0.017334,-0.027588,0,-4500,4500,0
1336.621094,-3.957031,1.437500,-1.207031,0.000000,0.000000,0.006010,0.126696,-0.120715,0.225665,0.008057,-0.025879,-0.016357,0,-4500,4500,0
1336.630859,-3.957031,1.437500,-1.207031,0.000000,0.000000,0.007208,0.126704,-0.120961,0.225365,-0.008545,-0.021973,-0.008545,0,-4500,4500,0
1336.640625,-3.957031,1.437500,-1.207031,0.000000,0.000000,0.007570,0.126567,-0.121084,0.225278,-0.030762,-0.020508,-0.006836,0,-4500,4500,0
1336.650391,-3.957031,1.437500,-1.207031,0.000000,0.000000,0.008196,0.126201,-0.121330,0.225172,-0.044189,-0.020996,-0.006836,0,-4500,4500,0
1336.660156,-3.957031,1.437500,-1.207031,0.000000,0.000000,0.008726,0.125835,-0.121576,0.224918,-0.055420,-0.019287,-0.007324,0,-4500,4500,0
1336.669922,-3.957031,1.437500,-1.207031,0.000000,0.000000,0.007353,0.125209,-0.121699,0.224785,-0.064941,-0.020508,-0.013672,0,-4500,4500,0
1336.679688,-3.957031,1.437500,-1.207031,0.000000,0.000000,0.007833,0.124469,-0.121945,0.224545,-0.075684,-0.019287,-0.024902,0,-4500,4500,0
1336.689453,-3.957031,1.437500,-1.207031,0.000000,-0.009998,0.007824,0.123730,-0.122068,0.224232,-0.083496,-0.023682,-0.032471,0,-4500,4500,0
1336.699219,-3.957031,1.437500,-1.207031,0.000000,-0.009998,0.008333,0.122860,-0.122314,0.223665,-0.082520,-0.028564,-0.033936,0,-4500,4500,0
1336.708984,-3.957031,1.437500,-1.207031,0.000000,-0.009998,0.008532,0.122189,-0.122560,0.223245,-0.080811,-0.035400,-0.044678,0,-4500,4500,0
1336.718750,-3.957031,1.437500,-1.207031,0.000000,-0.009998,0.008707,0.121456,-0.122806,0.222751,-0.073975,-0.033203,-0.050049,0,-4500,4500,0
1336.728516,-3.957031,1.437500,-1.207031,0.000000,-0.009998,0.009117,0.120838,-0.123114,0.222064,-0.064453,-0.038086,-0.049316,0,-4500,4500,0
1336.737305,-3.957031,1.437500,-1.207031,0.000000,-0.009998,0.009676,0.120472,-0.123360,0.221557,-0.040527,-0.031006,-0.047363,0,-4500,4500,0
1336.748047,-3.957031,1.437500,-1.207031,0.000000,-0.009998,0.009228,0.120167,-0.123483,0.221124,-0.038818,-0.015137,-0.045654,0,-4500,4500,0
1336.757812,-3.957031,1.437500,-1.207031,0.000000,-0.009998,0.010120,0.119922,-0.123483,0.220510,-0.029785,-0.009766,-0.036621,0,-4500,4500,0
1336.767578,-3.957031,1.437500,-1.207031,0.000000,-0.009998,0.010054,0.119808,-0.123544,0.220150,-0.010742,-0.008301,-0.042480,0,-4500,4500,0
1336.777344,-3.957031,1.437500,-1.207031,0.000000,-0.009998,0.009480,0.119869,-0.123544,0.219643,0.001465,-0.014648,-0.045166,0,-4500,4500,0
1336.787109,-3.957031,1.437500,-1.207031,0.000000,-0.009998,0.008995,0.119869,-0.123667,0.219196,0.004883,-0.020020,-0.048828,0,-4500,4500,0
1336.796875,-3.957031,1.437500,-1.207031,0.000000,-0.009998,0.008844,0.120037,-0.123790,0.218422,0.006836,-0.019287,-0.060547,0,-4500,4500,0
1336.806641,-3.957031,1.437500,-1.207031,0.000000,-0.009998,0.008675,0.120235,-0.123852,0.217808,0.020996,-0.014160,-0.061035,0,-4500,4500,0
1336.816406,-3.957031,1.437500,-1.207031,0.000000,-0.009998,0.007914,0.120548,-0.123913,0.217061,0.020996,-0.006592,-0.064209,0,-4500,4500,0
1336.826172,-3.957031,1.437500,-1.207031,0.000000,-0.009998,0.006645,0.120677,-0.123913,0.216240,0.012207,0.001953,-0.068115,0,-4500,4500,0
1336.835938,-3.957031,1.437500,-1.207031,0.000000,-0.009998,0.006092,0.120861,-0.123852,0.215613,0.000000,0.004639,-0.065918,0,-4500,4500,0
1336.845703,-3.957031,1.437500,-1.207031,0.000000,-0.009998,0.005484,0.120975,-0.123667,0.214960,0.002686,0.005615,-0.064941,0,-4500,4500,0
1336.855469,-3.957031,1.429688,-1.207031,0.000000,-0.009998,0.004314,0.121058,-0.123487,0.214366,0.000488,0.010498,-0.067383,0,-4500,4500,0
1336.865356,-3.957031,1.429688,-1.207031,0.000000,-0.009998,0.003492,0.121044,-0.123298,0.213525,-0.011230,0.014404,-0.067383,0,-4500,4500,0
1336.875000,-3.957031,1.429688,-1.207031,0.000000,-0.009998,0.003132,0.120968,-0.123052,0.212812,-0.026611,0.019775,-0.063232,0,-4500,4500,0
1336.884766,-3.957031,1.429688,-1.207031,0.000000,-0.009998,0.002913,0.120770,-0.122745,0.212292,-0.029785,0.024414,-0.057373,0,-4500,4500,0
1336.894531,-3.957031,1.429688,-1.207031,0.000000,-0.009998,0.003059,0.120457,-0.122437,0.211592,-0.039307,0.023438,-0.053223,0,-4500,4500,0
1336.904297,-3.957031,1.429688,-1.207031,0.000000,-0.009998,0.002949,0.120015,-0.122068,0.211072,-0.054199,0.020264,-0.050049,0,-4500,4500,0
1336.914062,-3.957031,1.429688,-1.207031,0.000000,-0.009998,0.003176,0.119588,-0.122007,0.210711,-0.058105,0.010498,-0.049316,0,-4500,4500,0
1336.923828,-3.957031,1.429688,-1.207031,0.000000,-0.009998,0.003223,0.119024,-0.121822,0.210191,-0.052734,-0.003906,-0.041992,0,-4500,4500,0
1336.933594,-3.957031,1.429688,-1.207031,0.000000,-0.009998,0.003729,0.118596,-0.121822,0.209758,-0.058105,-0.010254,-0.038818,0,-4500,4500,0
1336.943359,-3.957031,1.429688,-1.207031,0.000000,-0.009998,0.004471,0.118025,-0.121945,0.209298,-0.064941,-0.015625,-0.036133,0,-4500,4500,0
1336.953125,-3.957031,1.429688,-1.207031,0.000000,-0.009998,0.004845,0.117353,-0.122068,0.208937,-0.059082,-0.022705,-0.030273,0,-4500,4500,0
1336.962891,-3.957031,1.429688,-1.207031,0.000000,-0.009998,0.004669,0.116857,-0.122253,0.208503,-0.051514,-0.020996,-0.025391,0,-4500,4500,0
1336.972656,-3.957031,1.429688,-1.207031,0.000000,-0.009998,0.004629,0.116308,-0.122437,0.208250,-0.050049,-0.025879,-0.021729,0,-4500,4500,0
1336.982422,-3.957031,1.429688,-1.207031,0.000000,-0.009998,0.006104,0.115880,-0.122683,0.208022,-0.049561,-0.021484,-0.020264,0,-4500,4500,0
1336.992188,-3.957031,1.429688,-1.207031,0.000000,-0.009998,0.005816,0.115513,-0.122868,0.207648,-0.037354,-0.017334,-0.016357,0,-4500,4500,0
1337.001953,-3.957031,1.429688,-1.207031,0.000000,-0.009998,0.005796,0.115133,-0.122991,0.207503,-0.032471,-0.009766,-0.013184,0,-4500,4500,0
1337.011719,-3.957031,1.429688,-1.207031,0.000000,-0.009998,0.005730,0.114834,-0.122991,0.207395,-0.030273,0.007812,-0.010010,0,-4500,4500,0
1337.021484,-3.957031,1.429688,-1.207031,0.000000,-0.009998,0.005426,0.114515,-0.122929,0.207262,-0.028320,0.011963,-0.014893,0,-4500,4500,0
1337.031250,-3.957031,1.429688,-1.207031,0.000000,0.000000,0.004614,0.114400,-0.122806,0.207021,-0.013428,0.013428,-0.012695,0,-4500,4500,0
1337.040039,-3.957031,1.429688,-1.207031,0.000000,0.000000,0.004786,0.114324,-0.122622,0.206936,-0.004395,0.009766,-0.010498,0,-4500,4500,0
1337.050781,-3.957031,1.429688,-1.207031,0.000000,0.000000,0.004873,0.114331,-0.122560,0.206815,0.004150,0.003418,-0.009521,0,-4500,4500,0
1337.060547,-3.957031,1.429688,-1.207031,0.000000,0.000000,0.006538,0.114331,-0.122560,0.206695,0.005371,-0.000732,-0.010986,0,-4500,4500,0
1337.070312,-3.957031,1.429688,-1.207031,0.000000,0.000000,0.005554,0.114508,-0.122560,0.206369,0.016846,-0.008301,-0.013184,0,-4500,4500,0
1337.080078,-3.957031,1.429688,-1.207031,0.000000,0.000000,0.005632,0.114759,-0.122560,0.206296,0.024170,-0.006104,-0.008545,0,-4500,4500,0
1337.089844,-3.957031,1.429688,-1.207031,0.000000,0.000000,0.004890,0.114942,-0.122622,0.206176,0.019531,-0.000732,-0.012207,0,-4500,4500,0
1337.099609,-3.957031,1.429688,-1.207031,0.000000,0.000000,0.003794,0.115011,-0.122622,0.205875,0.014404,0.006104,-0.010498,0,-4500,4500,0
1337.109375,-3.957031,1.429688,-1.207031,0.000000,0.000000,0.003582,0.115194,-0.122499,0.205802,0.021484,0.016113,-0.007812,0,-4500,4500,0
1337.119141,-3.957031,1.429688,-1.207031,0.000000,0.000000,0.003582,0.115377,-0.122314,0.205742,0.022705,0.018066,-0.003662,0,-4500,4500,0
1337.128906,-3.957031,1.429688,-1.207031,0.000000,0.000000,0.002901,0.115506,-0.122007,0.205561,0.008545,0.017578,-0.003662,0,-4500,4500,0
1337.138672,-3.957031,1.429688,-1.207031,0.000000,0.000000,0.002649,0.115690,-0.121822,0.205561,0.013916,0.021240,-0.000977,0,-4500,4500,0
1337.148438,-3.957031,1.429688,-1.207031,0.000000,0.000000,0.002720,0.115812,-0.121638,0.205548,0.020996,0.015381,0.003662,0,-4500,4500,0
1337.158203,-3.957031,1.429688,-1.207031,0.000000,0.000000,0.002886,0.115934,-0.121576,0.205609,0.014893,0.012939,0.004639,0,-4500,4500,0
1337.167969,-3.957031,1.429688,-1.207031,0.000000,0.000000,0.002186,0.115995,-0.121453,0.205548,0.005371,0.008301,0.002930,0,-4500,4500,0
1337.177734,-3.957031,1.429688,-1.207031,0.000000,0.000000,0.002142,0.116117,-0.121392,0.205548,0.002686,0.003418,0.003662,0,-4500,4500,0
1337.187500,-3.957031,1.429688,-1.207031,0.000000,0.000000,0.001867,0.116117,-0.121392,0.205609,0.005859,0.005127,0.007812,0,-4500,4500,0
1337.197266,-3.957031,1.429688,-1.207031,0.000000,0.000000,0.001366,0.116117,-0.121330,0.205609,0.003174,0.002930,0.006836,0,-4500,4500,0
1337.207031,-3.957031,1.429688,-1.207031,0.000000,0.000000,0.001001,0.116117,-0.121330,0.205609,-0.007568,0.000732,0.002930,0,-4500,4500,0
1337.216797,-3.957031,1.429688,-1.207031,0.000000,0.000000,-0.000521,0.116117,-0.121330,0.205669,-0.009521,0.004639,0.010986,0,-4500,4500,0
1337.226562,-3.957031,1.429688,-1.207031,0.000000,0.000000,-0.000883,0.116049,-0.121330,0.205789,-0.008545,0.010498,0.011475,0,-4500,4500,0
1337.236328,-3.957031,1.429688,-1.207031,0.000000,0.000000,-0.000954,0.115805,-0.121207,0.205789,-0.011230,0.015381,0.011475,0,-4500,4500,0
1337.246094,-3.957031,1.429688,-1.207031,0.000000,0.000000,-0.001362,0.115744,-0.120961,0.205982,-0.015869,0.013428,0.013672,0,-4500,4500,0
1337.255859,-3.957031,1.429688,-1.207031,0.000000,0.000000,-0.001173,0.115614,-0.120838,0.206103,-0.013428,0.014893,0.014160,0,-4500,4500,0
1337.265625,-3.957031,1.429688,-1.207031,0.000000,0.000000,-0.000969,0.115492,-0.120715,0.206163,-0.003174,0.012939,0.011963,0,-4500,4500,0
1337.275391,-3.957031,1.429688,-1.207031,0.000000,0.000000,-0.000948,0.115431,-0.120592,0.206223,-0.006836,0.010498,0.006836,0,-4500,4500,0
1337.285156,-3.957031,1.429688,-1.207031,0.000000,0.000000,-0.000578,0.115370,-0.120531,0.206283,-0.009033,0.007324,0.007324,0,-4500,4500,0
1337.294922,-3.957031,1.429688,-1.207031,0.000000,0.000000,-0.003288,0.115309,-0.120469,0.206356,0.003662,0.001953,0.008301,0,-4500,4500,0
1337.304688,-3.957031,1.429688,-1.207031,0.000000,0.000000,-0.003551,0.115309,-0.120469,0.206416,0.010010,-0.000244,0.007812,0,-4500,4500,0
1337.314453,-3.957031,1.429688,-1.207031,0.000000,0.000000,-0.003944,0.115485,-0.120531,0.206464,0.014404,0.007324,0.008301,0,-4500,4500,0
